[
    {
        "id": 1,
        "name": "Downtown Parking Lot",
        "latitude": 24.7498039,
        "longitude": 46.6444821,
        "rate_per_hour": 5.0,
        "cost_per_hour": 10.3,
        "available_spots": 49,
        "total_spots": 50
    },
    {
        "id": 2,
        "name": "North Ring Road Parking Lot",
        "latitude": 24.7424313,
        "longitude": 46.6423718,
        "rate_per_hour": 4.4,
        "cost_per_hour": 5.3,
        "available_spots": 50,
        "total_spots": 50
    }, 
    {
        "id": 3,
        "name": "West Ring Parking Lot",
        "latitude": 24.7619539,
        "longitude": 46.6421894,
        "rate_per_hour": 3.0,
        "cost_per_hour": 3.0,
        "available_spots": 19,
        "total_spots": 100
    },
    {
        "id": 4,
        "name": "South Ring Parking Lot",
        "latitude": 24.7319539,
        "longitude": 46.6421894,
        "rate_per_hour": 2.7,
        "cost_per_hour": 5.0,
        "available_spots": 12,
        "total_spots": 30
    },
    {
        "id": 5,
        "name": "East Parking Lot",
        "latitude": 24.7519636,
        "longitude": 46.642228,
        "rate_per_hour": 5.0,
        "cost_per_hour": 10.0,
        "available_spots": 49,
        "total_spots": 80
    },
    {
        "id": 6,
        "name": "P1 Parking Lot",
        "latitude": 24.7521254,
        "longitude": 46.6430922,
        "rate_per_hour": 4.0,
        "cost_per_hour": 20.0,
        "available_spots": 7,
        "total_spots": 50
    }
]

